[
{
"name": "Sea Tac International Aiport",
"city": "Seattle",
"airportCode": "SEA",
"coordinates": [
47.4502446,
-122.3438358
]
},
"name": "Portland International Aiport",
"city": "Portland",
"airportCode": "PDX",
"coordinates": [
45.5897694,
-122.5972829
]
},
"name": "San Fransisco International Aiport",
"city": "San Fransisco",
"airportCode": "SFO",
"coordinates": [
37.6213129,
-122.3811441
]
},
"name": "Los Angeles International Aiport",
"city": "Los Angeles",
"airportCode": "LAX",
"coordinates": [
33.9415889,
-118.4107187
]
},
"name": "San Jose Aiport",
"city": "San Jose",
"airportCode": "SJC",
"coordinates": [
37.3639472,
-121.9311262
]
},
"name": "San Diego International Aiport",
"city": "San Diego",
"airportCode": "SAN",
"coordinates": [
32.7338006,
-117.1954925
]
},
"name": "JFK International Aiport",
"city": "New York City",
"airportCode": "JFK",
"coordinates": [
40.6413111,
-73.7803278
]
},
"name": "La Guardia International Aiport",
"city": "New York City",
"airportCode": "LGA",
"coordinates": [
40.7769271,
-73.8761546
]
},
"name": "Logan International Aiport",
"city": "Boston",
"airportCode": "BOS",
"coordinates": [
42.3656132,
-71.0117489
]
},
"name": "Dulles International Aiport",
"city": "Washington, D.C.",
"airportCode": "IAD",
"coordinates": [
38.9531162,
-77.4587328
]
},
"name": "Ronald Reagan Washington National Aiport",
"city": "Washington, D.C.",
"airportCode": "DCA",
"coordinates": [
38.851242,
-77.0424255
]
},
"name": "Miami International Aiport",
"city": "Miami",
"airportCode": "MIA",
"coordinates": [
25.795865,
-80.2892344
]
}
]
